[
    {
        "address": "Clarendon Row",
        "banking": 0,
        "bike_stands": 31,
        "bonus": 0,
        "contract_name": "dublin",
        "name": "CLARENDON ROW",
        "number": 1,
        "position_lat": 53.340927,
        "position_lng": -6.262501,
        "status": "OPEN"
    },
    {
        "address": "Blessington Street",
        "banking": 0,
        "bike_stands": 20,
        "bonus": 0,
        "contract_name": "dublin",
        "name": "BLESSINGTON STREET",
        "number": 2,
        "position_lat": 53.356769,
        "position_lng": -6.26814,
        "status": "OPEN"
    },
    {
        "address": "Bolton Street",
        "banking": 0,
        "bike_stands": 20,
        "bonus": 0,
        "contract_name": "dublin",
        "name": "BOLTON STREET",
        "number": 3,
        "position_lat": 53.351182,
        "position_lng": -6.269859,
        "status": "OPEN"
    },
    {
        "address": "Greek Street",
        "banking": 0,
        "bike_stands": 20,
        "bonus": 0,
        "contract_name": "dublin",
        "name": "GREEK STREET",
        "number": 4,
        "position_lat": 53.346874,
        "position_lng": -6.272976,
        "status": "OPEN"
    },
    {
        "address": "Charlemont Street",
        "banking": 0,
        "bike_stands": 40,
        "bonus": 0,
        "contract_name": "dublin",
        "name": "CHARLEMONT PLACE",
        "number": 5,
        "position_lat": 53.330662,
        "position_lng": -6.260177,
        "status": "OPEN"
    },
    {
        "address": "Christchurch Place",
        "banking": 0,
        "bike_stands": 20,
        "bonus": 0,
        "contract_name": "dublin",
        "name": "CHRISTCHURCH PLACE",
        "number": 6,
        "position_lat": 53.343368,
        "position_lng": -6.27012,
        "status": "OPEN"
    },
    {
        "address": "High Street",
        "banking": 0,
        "bike_stands": 29,
        "bonus": 0,
        "contract_name": "dublin",
        "name": "HIGH STREET",
        "number": 7,
        "position_lat": 53.343565,
        "position_lng": -6.275071,
        "status": "OPEN"
    },
    {
        "address": "Custom House Quay",
        "banking": 0,
        "bike_stands": 30,
        "bonus": 0,
        "contract_name": "dublin",
        "name": "CUSTOM HOUSE QUAY",
        "number": 8,
        "position_lat": 53.347884,
        "position_lng": -6.248048,
        "status": "OPEN"
    },
    {
        "address": "Exchequer Street",
        "banking": 0,
        "bike_stands": 24,
        "bonus": 0,
        "contract_name": "dublin",
        "name": "EXCHEQUER STREET",
        "number": 9,
        "position_lat": 53.343034,
        "position_lng": -6.263578,
        "status": "OPEN"
    },
    {
        "address": "Dame Street",
        "banking": 1,
        "bike_stands": 16,
        "bonus": 0,
        "contract_name": "dublin",
        "name": "DAME STREET",
        "number": 10,
        "position_lat": 53.344007,
        "position_lng": -6.266802,
        "status": "OPEN"
    },
    {
        "address": "Earlsfort Terrace",
        "banking": 0,
        "bike_stands": 30,
        "bonus": 0,
        "contract_name": "dublin",
        "name": "EARLSFORT TERRACE",
        "number": 11,
        "position_lat": 53.334295,
        "position_lng": -6.258503,
        "status": "OPEN"
    },
    {
        "address": "Eccles Street",
        "banking": 0,
        "bike_stands": 20,
        "bonus": 0,
        "contract_name": "dublin",
        "name": "ECCLES STREET",
        "number": 12,
        "position_lat": 53.359246,
        "position_lng": -6.269779,
        "status": "OPEN"
    },
    {
        "address": "Fitzwilliam Square West",
        "banking": 0,
        "bike_stands": 30,
        "bonus": 0,
        "contract_name": "dublin",
        "name": "FITZWILLIAM SQUARE WEST",
        "number": 13,
        "position_lat": 53.336074,
        "position_lng": -6.252825,
        "status": "OPEN"
    },
    {
        "address": "Fownes Street Upper",
        "banking": 0,
        "bike_stands": 30,
        "bonus": 0,
        "contract_name": "dublin",
        "name": "FOWNES STREET UPPER",
        "number": 14,
        "position_lat": 53.344603,
        "position_lng": -6.263371,
        "status": "OPEN"
    },
    {
        "address": "Hardwicke Street",
        "banking": 0,
        "bike_stands": 16,
        "bonus": 0,
        "contract_name": "dublin",
        "name": "HARDWICKE STREET",
        "number": 15,
        "position_lat": 53.355473,
        "position_lng": -6.264423,
        "status": "OPEN"
    },
    {
        "address": "Georges Quay",
        "banking": 0,
        "bike_stands": 20,
        "bonus": 0,
        "contract_name": "dublin",
        "name": "GEORGES QUAY",
        "number": 16,
        "position_lat": 53.347508,
        "position_lng": -6.252192,
        "status": "OPEN"
    },
    {
        "address": "Golden Lane",
        "banking": 0,
        "bike_stands": 20,
        "bonus": 0,
        "contract_name": "dublin",
        "name": "GOLDEN LANE",
        "number": 17,
        "position_lat": 53.340803,
        "position_lng": -6.267732,
        "status": "OPEN"
    },
    {
        "address": "Grantham Street",
        "banking": 0,
        "bike_stands": 30,
        "bonus": 0,
        "contract_name": "dublin",
        "name": "GRANTHAM STREET",
        "number": 18,
        "position_lat": 53.334123,
        "position_lng": -6.265436,
        "status": "OPEN"
    },
    {
        "address": "Herbert Place",
        "banking": 0,
        "bike_stands": 30,
        "bonus": 0,
        "contract_name": "dublin",
        "name": "HERBERT PLACE",
        "number": 19,
        "position_lat": 53.334432,
        "position_lng": -6.245575,
        "status": "OPEN"
    },
    {
        "address": "James Street East",
        "banking": 0,
        "bike_stands": 30,
        "bonus": 0,
        "contract_name": "dublin",
        "name": "JAMES STREET EAST",
        "number": 20,
        "position_lat": 53.336597,
        "position_lng": -6.248109,
        "status": "OPEN"
    },
    {
        "address": "Leinster Street South",
        "banking": 0,
        "bike_stands": 30,
        "bonus": 0,
        "contract_name": "dublin",
        "name": "LEINSTER STREET SOUTH",
        "number": 21,
        "position_lat": 53.34218,
        "position_lng": -6.254485,
        "status": "OPEN"
    },
    {
        "address": "Townsend Street",
        "banking": 0,
        "bike_stands": 20,
        "bonus": 0,
        "contract_name": "dublin",
        "name": "TOWNSEND STREET",
        "number": 22,
        "position_lat": 53.345922,
        "position_lng": -6.254614,
        "status": "OPEN"
    },
    {
        "address": "Custom House",
        "banking": 0,
        "bike_stands": 30,
        "bonus": 0,
        "contract_name": "dublin",
        "name": "CUSTOM HOUSE",
        "number": 23,
        "position_lat": 53.348279,
        "position_lng": -6.254662,
        "status": "OPEN"
    },
    {
        "address": "Cathal Brugha Street",
        "banking": 0,
        "bike_stands": 20,
        "bonus": 0,
        "contract_name": "dublin",
        "name": "CATHAL BRUGHA STREET",
        "number": 24,
        "position_lat": 53.352149,
        "position_lng": -6.260533,
        "status": "OPEN"
    },
    {
        "address": "Merrion Square East",
        "banking": 0,
        "bike_stands": 30,
        "bonus": 0,
        "contract_name": "dublin",
        "name": "MERRION SQUARE EAST",
        "number": 25,
        "position_lat": 53.339434,
        "position_lng": -6.246548,
        "status": "OPEN"
    },
    {
        "address": "Merrion Square West",
        "banking": 1,
        "bike_stands": 20,
        "bonus": 0,
        "contract_name": "dublin",
        "name": "MERRION SQUARE WEST",
        "number": 26,
        "position_lat": 53.339764,
        "position_lng": -6.251988,
        "status": "OPEN"
    },
    {
        "address": "Molesworth Street",
        "banking": 0,
        "bike_stands": 20,
        "bonus": 0,
        "contract_name": "dublin",
        "name": "MOLESWORTH STREET",
        "number": 27,
        "position_lat": 53.341288,
        "position_lng": -6.258117,
        "status": "OPEN"
    },
    {
        "address": "Mountjoy Square West",
        "banking": 0,
        "bike_stands": 30,
        "bonus": 0,
        "contract_name": "dublin",
        "name": "MOUNTJOY SQUARE WEST",
        "number": 28,
        "position_lat": 53.356299,
        "position_lng": -6.258586,
        "status": "OPEN"
    },
    {
        "address": "Ormond Quay Upper",
        "banking": 0,
        "bike_stands": 29,
        "bonus": 0,
        "contract_name": "dublin",
        "name": "ORMOND QUAY UPPER",
        "number": 29,
        "position_lat": 53.346057,
        "position_lng": -6.268001,
        "status": "OPEN"
    },
    {
        "address": "Parnell Square North",
        "banking": 0,
        "bike_stands": 20,
        "bonus": 0,
        "contract_name": "dublin",
        "name": "PARNELL SQUARE NORTH",
        "number": 30,
        "position_lat": 53.3537415547453,
        "position_lng": -6.26530144781526,
        "status": "OPEN"
    },
    {
        "address": "Parnell Street",
        "banking": 0,
        "bike_stands": 20,
        "bonus": 0,
        "contract_name": "dublin",
        "name": "PARNELL STREET",
        "number": 31,
        "position_lat": 53.350929,
        "position_lng": -6.265125,
        "status": "OPEN"
    },
    {
        "address": "Pearse Street",
        "banking": 0,
        "bike_stands": 30,
        "bonus": 0,
        "contract_name": "dublin",
        "name": "PEARSE STREET",
        "number": 32,
        "position_lat": 53.344304,
        "position_lng": -6.250427,
        "status": "OPEN"
    },
    {
        "address": "Princes Street / O'Connell Street",
        "banking": 1,
        "bike_stands": 23,
        "bonus": 0,
        "contract_name": "dublin",
        "name": "PRINCES STREET / O'CONNELL STREET",
        "number": 33,
        "position_lat": 53.349013,
        "position_lng": -6.260311,
        "status": "OPEN"
    },
    {
        "address": "Portobello Harbour",
        "banking": 0,
        "bike_stands": 30,
        "bonus": 0,
        "contract_name": "dublin",
        "name": "PORTOBELLO HARBOUR",
        "number": 34,
        "position_lat": 53.330362,
        "position_lng": -6.265163,
        "status": "OPEN"
    },
    {
        "address": "Smithfield",
        "banking": 0,
        "bike_stands": 30,
        "bonus": 0,
        "contract_name": "dublin",
        "name": "SMITHFIELD",
        "number": 35,
        "position_lat": 53.347692,
        "position_lng": -6.278214,
        "status": "OPEN"
    },
    {
        "address": "St. Stephen's Green East",
        "banking": 0,
        "bike_stands": 40,
        "bonus": 0,
        "contract_name": "dublin",
        "name": "ST. STEPHEN'S GREEN EAST",
        "number": 36,
        "position_lat": 53.337824,
        "position_lng": -6.256035,
        "status": "OPEN"
    },
    {
        "address": "St. Stephen's Green South",
        "banking": 1,
        "bike_stands": 30,
        "bonus": 0,
        "contract_name": "dublin",
        "name": "ST. STEPHEN'S GREEN SOUTH",
        "number": 37,
        "position_lat": 53.337494,
        "position_lng": -6.26199,
        "status": "OPEN"
    },
    {
        "address": "Talbot Street",
        "banking": 0,
        "bike_stands": 40,
        "bonus": 0,
        "contract_name": "dublin",
        "name": "TALBOT STREET",
        "number": 38,
        "position_lat": 53.350974,
        "position_lng": -6.25294,
        "status": "OPEN"
    },
    {
        "address": "Wilton Terrace",
        "banking": 0,
        "bike_stands": 20,
        "bonus": 0,
        "contract_name": "dublin",
        "name": "WILTON TERRACE",
        "number": 39,
        "position_lat": 53.332383,
        "position_lng": -6.252717,
        "status": "OPEN"
    },
    {
        "address": "Jervis Street",
        "banking": 0,
        "bike_stands": 21,
        "bonus": 0,
        "contract_name": "dublin",
        "name": "JERVIS STREET",
        "number": 40,
        "position_lat": 53.3483,
        "position_lng": -6.266651,
        "status": "OPEN"
    },
    {
        "address": "Harcourt Terrace",
        "banking": 0,
        "bike_stands": 20,
        "bonus": 0,
        "contract_name": "dublin",
        "name": "HARCOURT TERRACE",
        "number": 41,
        "position_lat": 53.332763,
        "position_lng": -6.257942,
        "status": "OPEN"
    },
    {
        "address": "Smithfield North",
        "banking": 0,
        "bike_stands": 30,
        "bonus": 0,
        "contract_name": "dublin",
        "name": "SMITHFIELD NORTH",
        "number": 42,
        "position_lat": 53.349562,
        "position_lng": -6.278198,
        "status": "OPEN"
    },
    {
        "address": "Portobello Road",
        "banking": 0,
        "bike_stands": 30,
        "bonus": 0,
        "contract_name": "dublin",
        "name": "PORTOBELLO ROAD",
        "number": 43,
        "position_lat": 53.330091,
        "position_lng": -6.268044,
        "status": "OPEN"
    },
    {
        "address": "Upper Sherrard Street",
        "banking": 0,
        "bike_stands": 30,
        "bonus": 0,
        "contract_name": "dublin",
        "name": "UPPER SHERRARD STREET",
        "number": 44,
        "position_lat": 53.358437,
        "position_lng": -6.260641,
        "status": "OPEN"
    },
    {
        "address": "Deverell Place",
        "banking": 0,
        "bike_stands": 30,
        "bonus": 0,
        "contract_name": "dublin",
        "name": "DEVERELL PLACE",
        "number": 45,
        "position_lat": 53.351464,
        "position_lng": -6.255265,
        "status": "OPEN"
    },
    {
        "address": "Herbert Street",
        "banking": 0,
        "bike_stands": 40,
        "bonus": 0,
        "contract_name": "dublin",
        "name": "HERBERT STREET",
        "number": 47,
        "position_lat": 53.335742,
        "position_lng": -6.24551,
        "status": "OPEN"
    },
    {
        "address": "Excise Walk",
        "banking": 0,
        "bike_stands": 40,
        "bonus": 0,
        "contract_name": "dublin",
        "name": "EXCISE WALK",
        "number": 48,
        "position_lat": 53.347777,
        "position_lng": -6.244239,
        "status": "OPEN"
    },
    {
        "address": "Guild Street",
        "banking": 0,
        "bike_stands": 40,
        "bonus": 0,
        "contract_name": "dublin",
        "name": "GUILD STREET",
        "number": 49,
        "position_lat": 53.347932,
        "position_lng": -6.240928,
        "status": "OPEN"
    },
    {
        "address": "George's Lane",
        "banking": 0,
        "bike_stands": 40,
        "bonus": 0,
        "contract_name": "dublin",
        "name": "GEORGES LANE",
        "number": 50,
        "position_lat": 53.35023,
        "position_lng": -6.279696,
        "status": "OPEN"
    },
    {
        "address": "York Street West",
        "banking": 0,
        "bike_stands": 40,
        "bonus": 0,
        "contract_name": "dublin",
        "name": "YORK STREET WEST",
        "number": 51,
        "position_lat": 53.339334,
        "position_lng": -6.264699,
        "status": "OPEN"
    },
    {
        "address": "York Street East",
        "banking": 0,
        "bike_stands": 32,
        "bonus": 0,
        "contract_name": "dublin",
        "name": "YORK STREET EAST",
        "number": 52,
        "position_lat": 53.338755,
        "position_lng": -6.262003,
        "status": "OPEN"
    },
    {
        "address": "Newman House",
        "banking": 0,
        "bike_stands": 40,
        "bonus": 0,
        "contract_name": "dublin",
        "name": "NEWMAN HOUSE",
        "number": 53,
        "position_lat": 53.337132,
        "position_lng": -6.26059,
        "status": "OPEN"
    },
    {
        "address": "Clonmel Street",
        "banking": 0,
        "bike_stands": 33,
        "bonus": 0,
        "contract_name": "dublin",
        "name": "CLONMEL STREET",
        "number": 54,
        "position_lat": 53.336021,
        "position_lng": -6.26298,
        "status": "OPEN"
    },
    {
        "address": "Hatch Street",
        "banking": 0,
        "bike_stands": 36,
        "bonus": 0,
        "contract_name": "dublin",
        "name": "HATCH STREET",
        "number": 55,
        "position_lat": 53.33403,
        "position_lng": -6.260714,
        "status": "OPEN"
    },
    {
        "address": "Mount Street Lower",
        "banking": 0,
        "bike_stands": 40,
        "bonus": 0,
        "contract_name": "dublin",
        "name": "MOUNT STREET LOWER",
        "number": 56,
        "position_lat": 53.33796,
        "position_lng": -6.24153,
        "status": "OPEN"
    },
    {
        "address": "Grattan Street",
        "banking": 0,
        "bike_stands": 23,
        "bonus": 0,
        "contract_name": "dublin",
        "name": "GRATTAN STREET",
        "number": 57,
        "position_lat": 53.339629,
        "position_lng": -6.243778,
        "status": "OPEN"
    },
    {
        "address": "Sir Patrick's Dun",
        "banking": 0,
        "bike_stands": 40,
        "bonus": 0,
        "contract_name": "dublin",
        "name": "SIR PATRICK DUN'S",
        "number": 58,
        "position_lat": 53.339218,
        "position_lng": -6.240642,
        "status": "OPEN"
    },
    {
        "address": "Denmark Street Great",
        "banking": 0,
        "bike_stands": 20,
        "bonus": 0,
        "contract_name": "dublin",
        "name": "DENMARK STREET GREAT",
        "number": 59,
        "position_lat": 53.35561,
        "position_lng": -6.261397,
        "status": "OPEN"
    },
    {
        "address": "North Circular Road",
        "banking": 0,
        "bike_stands": 30,
        "bonus": 0,
        "contract_name": "dublin",
        "name": "NORTH CIRCULAR ROAD",
        "number": 60,
        "position_lat": 53.359624,
        "position_lng": -6.260348,
        "status": "OPEN"
    },
    {
        "address": "Hardwicke Place",
        "banking": 0,
        "bike_stands": 25,
        "bonus": 0,
        "contract_name": "dublin",
        "name": "HARDWICKE PLACE",
        "number": 61,
        "position_lat": 53.357043,
        "position_lng": -6.263232,
        "status": "OPEN"
    },
    {
        "address": "Lime Street",
        "banking": 0,
        "bike_stands": 40,
        "bonus": 0,
        "contract_name": "dublin",
        "name": "LIME STREET",
        "number": 62,
        "position_lat": 53.346026,
        "position_lng": -6.243576,
        "status": "OPEN"
    },
    {
        "address": "Fenian Street",
        "banking": 0,
        "bike_stands": 35,
        "bonus": 0,
        "contract_name": "dublin",
        "name": "FENIAN STREET",
        "number": 63,
        "position_lat": 53.341428,
        "position_lng": -6.24672,
        "status": "OPEN"
    },
    {
        "address": "Sandwith Street",
        "banking": 0,
        "bike_stands": 40,
        "bonus": 0,
        "contract_name": "dublin",
        "name": "SANDWITH STREET",
        "number": 64,
        "position_lat": 53.345203,
        "position_lng": -6.247163,
        "status": "OPEN"
    },
    {
        "address": "Convention Centre",
        "banking": 1,
        "bike_stands": 40,
        "bonus": 0,
        "contract_name": "dublin",
        "name": "CONVENTION CENTRE",
        "number": 65,
        "position_lat": 53.34744,
        "position_lng": -6.238523,
        "status": "OPEN"
    },
    {
        "address": "New Central Bank",
        "banking": 0,
        "bike_stands": 40,
        "bonus": 0,
        "contract_name": "dublin",
        "name": "NEW CENTRAL BANK",
        "number": 66,
        "position_lat": 53.347122,
        "position_lng": -6.234749,
        "status": "OPEN"
    },
    {
        "address": "The Point",
        "banking": 0,
        "bike_stands": 40,
        "bonus": 0,
        "contract_name": "dublin",
        "name": "THE POINT",
        "number": 67,
        "position_lat": 53.346867,
        "position_lng": -6.230852,
        "status": "OPEN"
    },
    {
        "address": "Hanover Quay",
        "banking": 0,
        "bike_stands": 40,
        "bonus": 0,
        "contract_name": "dublin",
        "name": "HANOVER QUAY",
        "number": 68,
        "position_lat": 53.344115,
        "position_lng": -6.237153,
        "status": "OPEN"
    },
    {
        "address": "Grand Canal Dock",
        "banking": 0,
        "bike_stands": 40,
        "bonus": 0,
        "contract_name": "dublin",
        "name": "GRAND CANAL DOCK",
        "number": 69,
        "position_lat": 53.342638,
        "position_lng": -6.238695,
        "status": "OPEN"
    },
    {
        "address": "Kevin Street",
        "banking": 0,
        "bike_stands": 40,
        "bonus": 0,
        "contract_name": "dublin",
        "name": "KEVIN STREET",
        "number": 71,
        "position_lat": 53.337757,
        "position_lng": -6.267699,
        "status": "OPEN"
    },
    {
        "address": "John Street West",
        "banking": 0,
        "bike_stands": 31,
        "bonus": 0,
        "contract_name": "dublin",
        "name": "JOHN STREET WEST",
        "number": 72,
        "position_lat": 53.343105,
        "position_lng": -6.277167,
        "status": "OPEN"
    },
    {
        "address": "Francis Street",
        "banking": 0,
        "bike_stands": 30,
        "bonus": 0,
        "contract_name": "dublin",
        "name": "FRANCIS STREET",
        "number": 73,
        "position_lat": 53.342081,
        "position_lng": -6.275233,
        "status": "OPEN"
    },
    {
        "address": "Oliver Bond Street",
        "banking": 0,
        "bike_stands": 30,
        "bonus": 0,
        "contract_name": "dublin",
        "name": "OLIVER BOND STREET",
        "number": 74,
        "position_lat": 53.343893,
        "position_lng": -6.280531,
        "status": "OPEN"
    },
    {
        "address": "James Street",
        "banking": 0,
        "bike_stands": 40,
        "bonus": 0,
        "contract_name": "dublin",
        "name": "JAMES STREET",
        "number": 75,
        "position_lat": 53.343456,
        "position_lng": -6.287409,
        "status": "OPEN"
    },
    {
        "address": "Market Street South",
        "banking": 0,
        "bike_stands": 38,
        "bonus": 0,
        "contract_name": "dublin",
        "name": "MARKET STREET SOUTH",
        "number": 76,
        "position_lat": 53.342296,
        "position_lng": -6.287661,
        "status": "OPEN"
    },
    {
        "address": "Wolfe Tone Street",
        "banking": 0,
        "bike_stands": 29,
        "bonus": 0,
        "contract_name": "dublin",
        "name": "WOLFE TONE STREET",
        "number": 77,
        "position_lat": 53.348875,
        "position_lng": -6.267459,
        "status": "OPEN"
    },
    {
        "address": "Mater Hospital",
        "banking": 0,
        "bike_stands": 40,
        "bonus": 0,
        "contract_name": "dublin",
        "name": "MATER HOSPITAL",
        "number": 78,
        "position_lat": 53.359967,
        "position_lng": -6.264828,
        "status": "OPEN"
    },
    {
        "address": "Eccles Street East",
        "banking": 0,
        "bike_stands": 27,
        "bonus": 0,
        "contract_name": "dublin",
        "name": "ECCLES STREET EAST",
        "number": 79,
        "position_lat": 53.358115,
        "position_lng": -6.265601,
        "status": "OPEN"
    },
    {
        "address": "St James Hospital (Luas)",
        "banking": 0,
        "bike_stands": 40,
        "bonus": 0,
        "contract_name": "dublin",
        "name": "ST JAMES HOSPITAL (LUAS)",
        "number": 80,
        "position_lat": 53.341359,
        "position_lng": -6.292951,
        "status": "OPEN"
    },
    {
        "address": "Mount Brown",
        "banking": 0,
        "bike_stands": 22,
        "bonus": 0,
        "contract_name": "dublin",
        "name": "MOUNT BROWN",
        "number": 82,
        "position_lat": 53.341645,
        "position_lng": -6.29719,
        "status": "OPEN"
    },
    {
        "address": "Emmet Road",
        "banking": 0,
        "bike_stands": 40,
        "bonus": 0,
        "contract_name": "dublin",
        "name": "EMMET ROAD",
        "number": 83,
        "position_lat": 53.340714,
        "position_lng": -6.308191,
        "status": "OPEN"
    },
    {
        "address": "Brookfield Road",
        "banking": 0,
        "bike_stands": 30,
        "bonus": 0,
        "contract_name": "dublin",
        "name": "BROOKFIELD ROAD",
        "number": 84,
        "position_lat": 53.339005,
        "position_lng": -6.300217,
        "status": "OPEN"
    },
    {
        "address": "Rothe Abbey",
        "banking": 0,
        "bike_stands": 35,
        "bonus": 0,
        "contract_name": "dublin",
        "name": "ROTHE ABBEY",
        "number": 85,
        "position_lat": 53.338776,
        "position_lng": -6.30395,
        "status": "OPEN"
    },
    {
        "address": "Parkgate Street",
        "banking": 0,
        "bike_stands": 38,
        "bonus": 0,
        "contract_name": "dublin",
        "name": "PARKGATE STREET",
        "number": 86,
        "position_lat": 53.347972,
        "position_lng": -6.291804,
        "status": "OPEN"
    },
    {
        "address": "Collins Barracks Museum",
        "banking": 0,
        "bike_stands": 38,
        "bonus": 0,
        "contract_name": "dublin",
        "name": "COLLINS BARRACKS MUSEUM",
        "number": 87,
        "position_lat": 53.347477,
        "position_lng": -6.28525,
        "status": "OPEN"
    },
    {
        "address": "Blackhall Place",
        "banking": 0,
        "bike_stands": 30,
        "bonus": 0,
        "contract_name": "dublin",
        "name": "BLACKHALL PLACE",
        "number": 88,
        "position_lat": 53.3488,
        "position_lng": -6.281637,
        "status": "OPEN"
    },
    {
        "address": "Fitzwilliam Square East",
        "banking": 0,
        "bike_stands": 40,
        "bonus": 0,
        "contract_name": "dublin",
        "name": "FITZWILLIAM SQUARE EAST",
        "number": 89,
        "position_lat": 53.335211,
        "position_lng": -6.2509,
        "status": "OPEN"
    },
    {
        "address": "Benson Street",
        "banking": 0,
        "bike_stands": 40,
        "bonus": 0,
        "contract_name": "dublin",
        "name": "BENSON STREET",
        "number": 90,
        "position_lat": 53.344153,
        "position_lng": -6.233451,
        "status": "OPEN"
    },
    {
        "address": "South Dock Road",
        "banking": 0,
        "bike_stands": 30,
        "bonus": 0,
        "contract_name": "dublin",
        "name": "SOUTH DOCK ROAD",
        "number": 91,
        "position_lat": 53.341833,
        "position_lng": -6.231291,
        "status": "OPEN"
    },
    {
        "address": "Heuston Bridge (North)",
        "banking": 0,
        "bike_stands": 40,
        "bonus": 0,
        "contract_name": "dublin",
        "name": "HEUSTON BRIDGE (NORTH)",
        "number": 92,
        "position_lat": 53.347802,
        "position_lng": -6.292432,
        "status": "OPEN"
    },
    {
        "address": "Heuston Station (Central)",
        "banking": 0,
        "bike_stands": 40,
        "bonus": 0,
        "contract_name": "dublin",
        "name": "HEUSTON STATION (CENTRAL)",
        "number": 93,
        "position_lat": 53.346603,
        "position_lng": -6.296924,
        "status": "OPEN"
    },
    {
        "address": "Heuston Station (Car Park)",
        "banking": 0,
        "bike_stands": 40,
        "bonus": 0,
        "contract_name": "dublin",
        "name": "HEUSTON STATION (CAR PARK)",
        "number": 94,
        "position_lat": 53.346985,
        "position_lng": -6.297804,
        "status": "OPEN"
    },
    {
        "address": "Royal Hospital",
        "banking": 0,
        "bike_stands": 40,
        "bonus": 0,
        "contract_name": "dublin",
        "name": "ROYAL HOSPITAL",
        "number": 95,
        "position_lat": 53.343897,
        "position_lng": -6.29706,
        "status": "OPEN"
    },
    {
        "address": "Kilmainham Lane",
        "banking": 0,
        "bike_stands": 30,
        "bonus": 0,
        "contract_name": "dublin",
        "name": "KILMAINHAM LANE",
        "number": 96,
        "position_lat": 53.341805,
        "position_lng": -6.305085,
        "status": "OPEN"
    },
    {
        "address": "Kilmainham Gaol",
        "banking": 0,
        "bike_stands": 40,
        "bonus": 0,
        "contract_name": "dublin",
        "name": "KILMAINHAM GAOL",
        "number": 97,
        "position_lat": 53.342113,
        "position_lng": -6.310015,
        "status": "OPEN"
    },
    {
        "address": "Frederick Street South",
        "banking": 0,
        "bike_stands": 40,
        "bonus": 0,
        "contract_name": "dublin",
        "name": "FREDERICK STREET SOUTH",
        "number": 98,
        "position_lat": 53.341515,
        "position_lng": -6.256853,
        "status": "OPEN"
    },
    {
        "address": "City Quay",
        "banking": 0,
        "bike_stands": 30,
        "bonus": 0,
        "contract_name": "dublin",
        "name": "CITY QUAY",
        "number": 99,
        "position_lat": 53.346637,
        "position_lng": -6.246154,
        "status": "OPEN"
    },
    {
        "address": "Heuston Bridge (South)",
        "banking": 0,
        "bike_stands": 25,
        "bonus": 0,
        "contract_name": "dublin",
        "name": "HEUSTON BRIDGE (SOUTH)",
        "number": 100,
        "position_lat": 53.347106,
        "position_lng": -6.292041,
        "status": "OPEN"
    },
    {
        "address": "King Street North",
        "banking": 0,
        "bike_stands": 30,
        "bonus": 0,
        "contract_name": "dublin",
        "name": "KING STREET NORTH",
        "number": 101,
        "position_lat": 53.350291,
        "position_lng": -6.273507,
        "status": "OPEN"
    },
    {
        "address": "Western Way",
        "banking": 0,
        "bike_stands": 40,
        "bonus": 0,
        "contract_name": "dublin",
        "name": "WESTERN WAY",
        "number": 102,
        "position_lat": 53.354929,
        "position_lng": -6.269425,
        "status": "OPEN"
    },
    {
        "address": "Grangegorman Lower (South)",
        "banking": 0,
        "bike_stands": 40,
        "bonus": 0,
        "contract_name": "dublin",
        "name": "GRANGEGORMAN LOWER (SOUTH)",
        "number": 103,
        "position_lat": 53.354663,
        "position_lng": -6.278681,
        "status": "OPEN"
    },
    {
        "address": "Grangegorman Lower (Central)",
        "banking": 0,
        "bike_stands": 40,
        "bonus": 0,
        "contract_name": "dublin",
        "name": "GRANGEGORMAN LOWER (CENTRAL)",
        "number": 104,
        "position_lat": 53.355173,
        "position_lng": -6.278424,
        "status": "OPEN"
    },
    {
        "address": "Grangegorman Lower (North)",
        "banking": 0,
        "bike_stands": 36,
        "bonus": 0,
        "contract_name": "dublin",
        "name": "GRANGEGORMAN LOWER (NORTH)",
        "number": 105,
        "position_lat": 53.355954,
        "position_lng": -6.278378,
        "status": "OPEN"
    },
    {
        "address": "Rathdown Road",
        "banking": 0,
        "bike_stands": 40,
        "bonus": 0,
        "contract_name": "dublin",
        "name": "RATHDOWN ROAD",
        "number": 106,
        "position_lat": 53.35893,
        "position_lng": -6.280337,
        "status": "OPEN"
    },
    {
        "address": "Charleville Road",
        "banking": 0,
        "bike_stands": 40,
        "bonus": 0,
        "contract_name": "dublin",
        "name": "CHARLEVILLE ROAD",
        "number": 107,
        "position_lat": 53.359157,
        "position_lng": -6.281866,
        "status": "OPEN"
    },
    {
        "address": "Avondale Road",
        "banking": 0,
        "bike_stands": 35,
        "bonus": 0,
        "contract_name": "dublin",
        "name": "AVONDALE ROAD",
        "number": 108,
        "position_lat": 53.359405,
        "position_lng": -6.276142,
        "status": "OPEN"
    },
    {
        "address": "Buckingham Street Lower",
        "banking": 0,
        "bike_stands": 29,
        "bonus": 0,
        "contract_name": "dublin",
        "name": "BUCKINGHAM STREET LOWER",
        "number": 109,
        "position_lat": 53.353331,
        "position_lng": -6.249319,
        "status": "OPEN"
    },
    {
        "address": "Phibsborough Road",
        "banking": 0,
        "bike_stands": 40,
        "bonus": 0,
        "contract_name": "dublin",
        "name": "PHIBSBOROUGH ROAD",
        "number": 110,
        "position_lat": 53.356307,
        "position_lng": -6.273717,
        "status": "OPEN"
    },
    {
        "address": "Mountjoy Square East",
        "banking": 0,
        "bike_stands": 40,
        "bonus": 0,
        "contract_name": "dublin",
        "name": "MOUNTJOY SQUARE EAST",
        "number": 111,
        "position_lat": 53.356717,
        "position_lng": -6.256359,
        "status": "OPEN"
    },
    {
        "address": "North Circular Road (O'Connell's)",
        "banking": 0,
        "bike_stands": 30,
        "bonus": 0,
        "contract_name": "dublin",
        "name": "NORTH CIRCULAR ROAD (O'CONNELL'S)",
        "number": 112,
        "position_lat": 53.357841,
        "position_lng": -6.251557,
        "status": "OPEN"
    },
    {
        "address": "Merrion Square South",
        "banking": 0,
        "bike_stands": 40,
        "bonus": 0,
        "contract_name": "dublin",
        "name": "MERRION SQUARE SOUTH",
        "number": 113,
        "position_lat": 53.338614,
        "position_lng": -6.248606,
        "status": "OPEN"
    },
    {
        "address": "Wilton Terrace (Park)",
        "banking": 0,
        "bike_stands": 40,
        "bonus": 0,
        "contract_name": "dublin",
        "name": "WILTON TERRACE (PARK)",
        "number": 114,
        "position_lat": 53.333653,
        "position_lng": -6.248345,
        "status": "OPEN"
    },
    {
        "address": "Killarney Street",
        "banking": 0,
        "bike_stands": 30,
        "bonus": 0,
        "contract_name": "dublin",
        "name": "KILLARNEY STREET",
        "number": 115,
        "position_lat": 53.354845,
        "position_lng": -6.247579,
        "status": "OPEN"
    },
    {
        "address": "Broadstone",
        "banking": 0,
        "bike_stands": 30,
        "bonus": 0,
        "contract_name": "dublin",
        "name": "BROADSTONE",
        "number": 116,
        "position_lat": 53.3547,
        "position_lng": -6.272314,
        "status": "OPEN"
    },
    {
        "address": "Hanover Quay East",
        "banking": 0,
        "bike_stands": 40,
        "bonus": 0,
        "contract_name": "dublin",
        "name": "HANOVER QUAY EAST",
        "number": 117,
        "position_lat": 53.343653,
        "position_lng": -6.231755,
        "status": "OPEN"
    }
]