[
    {
        "number": 27,
        "contract_name": "vilnius",
        "name": "27-\u017dALIASIS TILTAS",
        "address": "Kalvarij\u0173 g. \u2013 \u017dvej\u0173 g. sankry\u017ea",
        "position": {
            "lat": 54.69221264,
            "lng": 25.27933285
        },
        "banking": true,
        "bonus": false,
        "bike_stands": 18,
        "available_bike_stands": 1,
        "available_bikes": 17,
        "status": "OPEN",
        "last_update": 1714748321000
    },
    {
        "number": 1,
        "contract_name": "vilnius",
        "name": "1-ARKIKATEDRA",
        "address": "\u0160ventaragio g.",
        "position": {
            "lat": 54.68590826,
            "lng": 25.28560002
        },
        "banking": true,
        "bonus": false,
        "bike_stands": 21,
        "available_bike_stands": 10,
        "available_bikes": 11,
        "status": "OPEN",
        "last_update": 1714748345000
    },
    {
        "number": 33,
        "contract_name": "vilnius",
        "name": "33-LIETUVOS VAIK\u0172 IR JAUNIMO CENTRAS",
        "address": "Konstitucijos pr. (\u0161alia Lietuvos vaik\u0173 ir jaunimo centro)",
        "position": {
            "lat": 54.698543,
            "lng": 25.26644
        },
        "banking": true,
        "bonus": false,
        "bike_stands": 18,
        "available_bike_stands": 12,
        "available_bikes": 6,
        "status": "OPEN",
        "last_update": 1714747859000
    },
    {
        "number": 10,
        "contract_name": "vilnius",
        "name": "10-KALN\u0172 PARKAS",
        "address": "T. Kosciu\u0161kos g.",
        "position": {
            "lat": 54.68866096,
            "lng": 25.29316907
        },
        "banking": false,
        "bonus": false,
        "bike_stands": 9,
        "available_bike_stands": 9,
        "available_bikes": 0,
        "status": "OPEN",
        "last_update": 1714747921000
    },
    {
        "number": 38,
        "contract_name": "vilnius",
        "name": "38-\u0160ILO TILTAS",
        "address": "\u017dirm\u016bn\u0173 g. - Minties g. sankry\u017ea",
        "position": {
            "lat": 54.705339,
            "lng": 25.304181
        },
        "banking": true,
        "bonus": false,
        "bike_stands": 18,
        "available_bike_stands": 4,
        "available_bikes": 14,
        "status": "OPEN",
        "last_update": 1714748192000
    },
    {
        "number": 23,
        "contract_name": "vilnius",
        "name": "23-EUROPOS AIK\u0160T\u0116",
        "address": "Konstitucijos pr. (Europos aik\u0161t\u0117)",
        "position": {
            "lat": 54.69546047,
            "lng": 25.2786606
        },
        "banking": true,
        "bonus": false,
        "bike_stands": 21,
        "available_bike_stands": 16,
        "available_bikes": 4,
        "status": "OPEN",
        "last_update": 1714747825000
    },
    {
        "number": 25,
        "contract_name": "vilnius",
        "name": "25-PANORAMA",
        "address": "Saltoni\u0161ki\u0173 g. (PC \u201ePanorama\u201c)",
        "position": {
            "lat": 54.69850622,
            "lng": 25.25819165
        },
        "banking": true,
        "bonus": false,
        "bike_stands": 18,
        "available_bike_stands": 13,
        "available_bikes": 5,
        "status": "OPEN",
        "last_update": 1714747799000
    },
    {
        "number": 18,
        "contract_name": "vilnius",
        "name": "18-RADVIL\u0172 R\u016aMAI",
        "address": "Vilniaus g. \u2013 Islandijos g. sankry\u017ea",
        "position": {
            "lat": 54.68300406,
            "lng": 25.28001237
        },
        "banking": true,
        "bonus": false,
        "bike_stands": 21,
        "available_bike_stands": 7,
        "available_bikes": 14,
        "status": "OPEN",
        "last_update": 1714747828000
    },
    {
        "number": 5,
        "contract_name": "vilnius",
        "name": "5-FILHARMONIJA",
        "address": "Did\u017eioji g. \u2013 Suba\u010diaus g. sankry\u017ea",
        "position": {
            "lat": 54.6762269,
            "lng": 25.28861228
        },
        "banking": true,
        "bonus": false,
        "bike_stands": 12,
        "available_bike_stands": 10,
        "available_bikes": 2,
        "status": "OPEN",
        "last_update": 1714748381000
    },
    {
        "number": 26,
        "contract_name": "vilnius",
        "name": "26-EDUKOLOGIJOS UNIVERSITETAS",
        "address": "Up\u0117s g. \u2013 Student\u0173 g. sankry\u017ea",
        "position": {
            "lat": 54.69558,
            "lng": 25.257209
        },
        "banking": true,
        "bonus": false,
        "bike_stands": 18,
        "available_bike_stands": 11,
        "available_bikes": 7,
        "status": "OPEN",
        "last_update": 1714747855000
    },
    {
        "number": 4,
        "contract_name": "vilnius",
        "name": "4-ROTU\u0160\u0116",
        "address": "Did\u017eioji g.",
        "position": {
            "lat": 54.67788858,
            "lng": 25.28745212
        },
        "banking": true,
        "bonus": false,
        "bike_stands": 12,
        "available_bike_stands": 8,
        "available_bikes": 4,
        "status": "OPEN",
        "last_update": 1714747857000
    },
    {
        "number": 28,
        "contract_name": "vilnius",
        "name": "28-OPEROS IR BALETO TEATRAS",
        "address": "A. Vienuolio g. \u2013 A. Go\u0161tauto g. sankry\u017ea",
        "position": {
            "lat": 54.69049166,
            "lng": 25.27821042
        },
        "banking": true,
        "bonus": false,
        "bike_stands": 15,
        "available_bike_stands": 7,
        "available_bikes": 8,
        "status": "OPEN",
        "last_update": 1714747854000
    },
    {
        "number": 40,
        "contract_name": "vilnius",
        "name": "40-OGMIOS MIESTAS",
        "address": "Luk\u0161io g. (Ogmios miestas)",
        "position": {
            "lat": 54.712375,
            "lng": 25.29664
        },
        "banking": true,
        "bonus": false,
        "bike_stands": 27,
        "available_bike_stands": 12,
        "available_bikes": 15,
        "status": "OPEN",
        "last_update": 1714747826000
    },
    {
        "number": 36,
        "contract_name": "vilnius",
        "name": "36-AUTOBUS\u0172 STOTIS",
        "address": "Gele\u017einkelio g. \u2013 Stoties g. sankry\u017ea (\u0161alia Autobus\u0173 stoties)",
        "position": {
            "lat": 54.67059724,
            "lng": 25.28283084
        },
        "banking": true,
        "bonus": false,
        "bike_stands": 12,
        "available_bike_stands": 8,
        "available_bikes": 4,
        "status": "OPEN",
        "last_update": 1714747839000
    },
    {
        "number": 21,
        "contract_name": "vilnius",
        "name": "21-VA\u0160INGTONO AIK\u0160T\u0116",
        "address": "J. Tumo-Vai\u017eganto g. \u2013 Luki\u0161ki\u0173 g. sankry\u017ea",
        "position": {
            "lat": 54.69207484,
            "lng": 25.2711658
        },
        "banking": true,
        "bonus": false,
        "bike_stands": 12,
        "available_bike_stands": 9,
        "available_bikes": 3,
        "status": "OPEN",
        "last_update": 1714748073000
    },
    {
        "number": 29,
        "contract_name": "vilnius",
        "name": "29-\u017dALGIRIO STADIONAS",
        "address": "Rinktin\u0117s g. \u2013 A. Juozapavi\u010diaus g. sankry\u017e\u0105",
        "position": {
            "lat": 54.69180897,
            "lng": 25.28903636
        },
        "banking": false,
        "bonus": false,
        "bike_stands": 12,
        "available_bike_stands": 8,
        "available_bikes": 4,
        "status": "OPEN",
        "last_update": 1714747839000
    },
    {
        "number": 17,
        "contract_name": "vilnius",
        "name": "17-JOGAILOS",
        "address": "Pam\u0117nkalnio g. \u2013 Jogailos g. sankry\u017ea",
        "position": {
            "lat": 54.68476062,
            "lng": 25.27703073
        },
        "banking": true,
        "bonus": false,
        "bike_stands": 21,
        "available_bike_stands": 6,
        "available_bikes": 9,
        "status": "OPEN",
        "last_update": 1714747835000
    },
    {
        "number": 6,
        "contract_name": "vilnius",
        "name": "6-HAL\u0116S TURGAVIET\u0116",
        "address": "Vis\u0173 \u0160vent\u0173j\u0173 g. \u2013 Bazilijon\u0173 g. sankry\u017ea",
        "position": {
            "lat": 54.67422353,
            "lng": 25.2855307
        },
        "banking": true,
        "bonus": false,
        "bike_stands": 9,
        "available_bike_stands": 6,
        "available_bikes": 3,
        "status": "OPEN",
        "last_update": 1714747855000
    },
    {
        "number": 12,
        "contract_name": "vilnius",
        "name": "12-V. KUDIRKOS AIK\u0160T\u0116",
        "address": "Gedimino pr. (V. Kudirkos aik\u0161t\u0117)",
        "position": {
            "lat": 54.68727317,
            "lng": 25.28012935
        },
        "banking": true,
        "bonus": false,
        "bike_stands": 15,
        "available_bike_stands": 4,
        "available_bikes": 11,
        "status": "OPEN",
        "last_update": 1714747877000
    },
    {
        "number": 13,
        "contract_name": "vilnius",
        "name": "13-A. VIENUOLIO",
        "address": "Gedimino pr.",
        "position": {
            "lat": 54.68785091,
            "lng": 25.27663297
        },
        "banking": true,
        "bonus": false,
        "bike_stands": 18,
        "available_bike_stands": 7,
        "available_bikes": 10,
        "status": "OPEN",
        "last_update": 1714747804000
    },
    {
        "number": 19,
        "contract_name": "vilnius",
        "name": "19-S. N\u0116RIES GIMNAZIJA",
        "address": "Vokie\u010di\u0173 g. \u2013 Dominikon\u0173 g. sankry\u017ea",
        "position": {
            "lat": 54.68094054,
            "lng": 25.28207902
        },
        "banking": true,
        "bonus": false,
        "bike_stands": 21,
        "available_bike_stands": 8,
        "available_bikes": 13,
        "status": "OPEN",
        "last_update": 1714747859000
    },
    {
        "number": 24,
        "contract_name": "vilnius",
        "name": "24-FORUM PALACE",
        "address": "Up\u0117s g. \u2013 G. Baravyko g. sankry\u017ea",
        "position": {
            "lat": 54.69631647,
            "lng": 25.26611228
        },
        "banking": true,
        "bonus": false,
        "bike_stands": 12,
        "available_bike_stands": 5,
        "available_bikes": 7,
        "status": "OPEN",
        "last_update": 1714747848000
    },
    {
        "number": 15,
        "contract_name": "vilnius",
        "name": "15-M. MA\u017dVYDO BIBLIOTEKA",
        "address": "Gedimino pr. \u2013 Gyn\u0117j\u0173 g. sankry\u017ea",
        "position": {
            "lat": 54.69008355,
            "lng": 25.26344367
        },
        "banking": true,
        "bonus": false,
        "bike_stands": 24,
        "available_bike_stands": 11,
        "available_bikes": 13,
        "status": "OPEN",
        "last_update": 1714748305000
    },
    {
        "number": 3,
        "contract_name": "vilnius",
        "name": "3-K. SIRVYDO SKVERAS",
        "address": "Pilies g. \u2013 Bok\u0161to g. sankry\u017ea",
        "position": {
            "lat": 54.68093041,
            "lng": 25.2884646
        },
        "banking": true,
        "bonus": false,
        "bike_stands": 18,
        "available_bike_stands": 17,
        "available_bikes": 1,
        "status": "OPEN",
        "last_update": 1714747781000
    },
    {
        "number": 16,
        "contract_name": "vilnius",
        "name": "16-TAURO KALNAS",
        "address": "Pam\u0117nkalnio g. \u2013 Tauro g. sankry\u017ea",
        "position": {
            "lat": 54.68681715,
            "lng": 25.27143064
        },
        "banking": true,
        "bonus": false,
        "bike_stands": 12,
        "available_bike_stands": 11,
        "available_bikes": 1,
        "status": "OPEN",
        "last_update": 1714747841000
    },
    {
        "number": 7,
        "contract_name": "vilnius",
        "name": "7-STOTIS",
        "address": "Sein\u0173 g. \u2013 Gele\u017einkelio g. sankry\u017ea",
        "position": {
            "lat": 54.67115499,
            "lng": 25.28417915
        },
        "banking": false,
        "bonus": false,
        "bike_stands": 18,
        "available_bike_stands": 16,
        "available_bikes": 2,
        "status": "OPEN",
        "last_update": 1714747968000
    },
    {
        "number": 2,
        "contract_name": "vilnius",
        "name": "2-BARBOROS RADVILAIT\u0116S",
        "address": "Pilies g. \u2013 Radvilait\u0117s g. sankry\u017ea",
        "position": {
            "lat": 54.68447055,
            "lng": 25.28936958
        },
        "banking": true,
        "bonus": false,
        "bike_stands": 21,
        "available_bike_stands": 6,
        "available_bikes": 15,
        "status": "OPEN",
        "last_update": 1714747859000
    },
    {
        "number": 39,
        "contract_name": "vilnius",
        "name": "39-\u0160IAUR\u0116S MIESTELIS",
        "address": "\u017dirm\u016bn\u0173 g. - Luk\u0161io g. sankry\u017ea",
        "position": {
            "lat": 54.711357,
            "lng": 25.304238
        },
        "banking": true,
        "bonus": false,
        "bike_stands": 18,
        "available_bike_stands": 15,
        "available_bikes": 3,
        "status": "OPEN",
        "last_update": 1714747791000
    },
    {
        "number": 8,
        "contract_name": "vilnius",
        "name": "8-MAIRONIO",
        "address": "K\u016bdr\u0173 g. \u2013 Maironio g. sankry\u017ea",
        "position": {
            "lat": 54.67852,
            "lng": 25.29385654
        },
        "banking": true,
        "bonus": false,
        "bike_stands": 15,
        "available_bike_stands": 4,
        "available_bikes": 11,
        "status": "OPEN",
        "last_update": 1714747841000
    },
    {
        "number": 31,
        "contract_name": "vilnius",
        "name": "31-OLAND\u0172 \u017dIEDAS",
        "address": "Antakalnio g. \u2013 Oland\u0173 g. \u017eiedin\u0117 sankry\u017ea (\u0161alia \u0160v. Petro ir Povilo ba\u017eny\u010dios)",
        "position": {
            "lat": 54.69332591,
            "lng": 25.30506775
        },
        "banking": true,
        "bonus": false,
        "bike_stands": 21,
        "available_bike_stands": 9,
        "available_bikes": 12,
        "status": "OPEN",
        "last_update": 1714748365000
    },
    {
        "number": 9,
        "contract_name": "vilnius",
        "name": "9-U\u017dUPIS",
        "address": "U\u017eupio g. \u2013 Krivi\u0173 g. sankry\u017ea",
        "position": {
            "lat": 54.68114579,
            "lng": 25.29904378
        },
        "banking": true,
        "bonus": false,
        "bike_stands": 12,
        "available_bike_stands": 3,
        "available_bikes": 9,
        "status": "OPEN",
        "last_update": 1714748008000
    },
    {
        "number": 30,
        "contract_name": "vilnius",
        "name": "30- \u017dIRM\u016aN\u0172",
        "address": "\u017dirm\u016bn\u0173 g. \u2013 Tuskul\u0117n\u0173 g. \u017eiedin\u0117 sankry\u017ea (\u0161alia PC IKI )",
        "position": {
            "lat": 54.697047,
            "lng": 25.299883
        },
        "banking": true,
        "bonus": false,
        "bike_stands": 24,
        "available_bike_stands": 0,
        "available_bikes": 24,
        "status": "OPEN",
        "last_update": 1714747932000
    },
    {
        "number": 14,
        "contract_name": "vilnius",
        "name": "14-LUKI\u0160KI\u0172 AIK\u0160T\u0116",
        "address": "Gedimino pr. \u2013 J. Tumo-Vai\u017eganto g. sankry\u017ea",
        "position": {
            "lat": 54.68907997,
            "lng": 25.26938954
        },
        "banking": false,
        "bonus": false,
        "bike_stands": 21,
        "available_bike_stands": 10,
        "available_bikes": 11,
        "status": "OPEN",
        "last_update": 1714748348000
    },
    {
        "number": 35,
        "contract_name": "vilnius",
        "name": "35-VILNIAUS VARTAI",
        "address": "A. Tum\u0117no g.",
        "position": {
            "lat": 54.69181762,
            "lng": 25.26346218
        },
        "banking": true,
        "bonus": false,
        "bike_stands": 12,
        "available_bike_stands": 9,
        "available_bikes": 3,
        "status": "OPEN",
        "last_update": 1714747919000
    }
]