{ "data": [{"address": "Smithfield North", "banking": null, "bike_stands": null, "bonus": null, "contract_name": null, "name": "SMITHFIELD NORTH", "number": 42, "position_lat": 53.349562, "position_lng": -6.278198, "status": null}, {"address": "Parnell Square North", "banking": null, "bike_stands": null, "bonus": null, "contract_name": null, "name": "PARNELL SQUARE NORTH", "number": 30, "position_lat": 53.3537415547453, "position_lng": -6.26530144781526, "status": null}, {"address": "Clonmel Street", "banking": null, "bike_stands": null, "bonus": null, "contract_name": null, "name": "CLONMEL STREET", "number": 54, "position_lat": 53.336021, "position_lng": -6.26298, "status": null}, {"address": "Avondale Road", "banking": null, "bike_stands": null, "bonus": null, "contract_name": null, "name": "AVONDALE ROAD", "number": 108, "position_lat": 53.359405, "position_lng": -6.276142, "status": null}, {"address": "James Street East", "banking": null, "bike_stands": null, "bonus": null, "contract_name": null, "name": "JAMES STREET EAST", "number": 20, "position_lat": 53.336597, "position_lng": -6.248109, "status": null}, {"address": "Mount Street Lower", "banking": null, "bike_stands": null, "bonus": null, "contract_name": null, "name": "MOUNT STREET LOWER", "number": 56, "position_lat": 53.33796, "position_lng": -6.24153, "status": null}, {"address": "Christchurch Place", "banking": null, "bike_stands": null, "bonus": null, "contract_name": null, "name": "CHRISTCHURCH PLACE", "number": 6, "position_lat": 53.343368, "position_lng": -6.27012, "status": null}, {"address": "Grantham Street", "banking": null, "bike_stands": null, "bonus": null, "contract_name": null, "name": "GRANTHAM STREET", "number": 18, "position_lat": 53.334123, "position_lng": -6.265436, "status": null}, {"address": "Pearse Street", "banking": null, "bike_stands": null, "bonus": null, "contract_name": null, "name": "PEARSE STREET", "number": 32, "position_lat": 53.344304, "position_lng": -6.250427, "status": null}, {"address": "York Street East", "banking": null, "bike_stands": null, "bonus": null, "contract_name": null, "name": "YORK STREET EAST", "number": 52, "position_lat": 53.338755, "position_lng": -6.262003, "status": null}, {"address": "Excise Walk", "banking": null, "bike_stands": null, "bonus": null, "contract_name": null, "name": "EXCISE WALK", "number": 48, "position_lat": 53.347777, "position_lng": -6.244239, "status": null}, {"address": "Fitzwilliam Square West", "banking": null, "bike_stands": null, "bonus": null, "contract_name": null, "name": "FITZWILLIAM SQUARE WEST", "number": 13, "position_lat": 53.336074, "position_lng": -6.252825, "status": null}, {"address": "Portobello Road", "banking": null, "bike_stands": null, "bonus": null, "contract_name": null, "name": "PORTOBELLO ROAD", "number": 43, "position_lat": 53.330091, "position_lng": -6.268044, "status": null}, {"address": "Parnell Street", "banking": null, "bike_stands": null, "bonus": null, "contract_name": null, "name": "PARNELL STREET", "number": 31, "position_lat": 53.350929, "position_lng": -6.265125, "status": null}, {"address": "Frederick Street South", "banking": null, "bike_stands": null, "bonus": null, "contract_name": null, "name": "FREDERICK STREET SOUTH", "number": 98, "position_lat": 53.341515, "position_lng": -6.256853, "status": null}, {"address": "Fownes Street Upper", "banking": null, "bike_stands": null, "bonus": null, "contract_name": null, "name": "FOWNES STREET UPPER", "number": 14, "position_lat": 53.344603, "position_lng": -6.263371, "status": null}, {"address": "Clarendon Row", "banking": null, "bike_stands": null, "bonus": null, "contract_name": null, "name": "CLARENDON ROW", "number": 1, "position_lat": 53.340927, "position_lng": -6.262501, "status": null}, {"address": "Custom House", "banking": null, "bike_stands": null, "bonus": null, "contract_name": null, "name": "CUSTOM HOUSE", "number": 23, "position_lat": 53.348279, "position_lng": -6.254662, "status": null}, {"address": "Rathdown Road", "banking": null, "bike_stands": null, "bonus": null, "contract_name": null, "name": "RATHDOWN ROAD", "number": 106, "position_lat": 53.35893, "position_lng": -6.280337, "status": null}, {"address": "North Circular Road (O'Connell's)", "banking": null, "bike_stands": null, "bonus": null, "contract_name": null, "name": "NORTH CIRCULAR ROAD (O'CONNELL'S)", "number": 112, "position_lat": 53.357841, "position_lng": -6.251557, "status": null}, {"address": "Hanover Quay", "banking": null, "bike_stands": null, "bonus": null, "contract_name": null, "name": "HANOVER QUAY", "number": 68, "position_lat": 53.344115, "position_lng": -6.237153, "status": null}, {"address": "Oliver Bond Street", "banking": null, "bike_stands": null, "bonus": null, "contract_name": null, "name": "OLIVER BOND STREET", "number": 74, "position_lat": 53.343893, "position_lng": -6.280531, "status": null}, {"address": "Collins Barracks Museum", "banking": null, "bike_stands": null, "bonus": null, "contract_name": null, "name": "COLLINS BARRACKS MUSEUM", "number": 87, "position_lat": 53.347477, "position_lng": -6.28525, "status": null}, {"address": "Brookfield Road", "banking": null, "bike_stands": null, "bonus": null, "contract_name": null, "name": "BROOKFIELD ROAD", "number": 84, "position_lat": 53.339005, "position_lng": -6.300217, "status": null}, {"address": "Benson Street", "banking": null, "bike_stands": null, "bonus": null, "contract_name": null, "name": "BENSON STREET", "number": 90, "position_lat": 53.344153, "position_lng": -6.233451, "status": null}, {"address": "Earlsfort Terrace", "banking": null, "bike_stands": null, "bonus": null, "contract_name": null, "name": "EARLSFORT TERRACE", "number": 11, "position_lat": 53.334295, "position_lng": -6.258503, "status": null}, {"address": "Golden Lane", "banking": null, "bike_stands": null, "bonus": null, "contract_name": null, "name": "GOLDEN LANE", "number": 17, "position_lat": 53.340803, "position_lng": -6.267732, "status": null}, {"address": "Deverell Place", "banking": null, "bike_stands": null, "bonus": null, "contract_name": null, "name": "DEVERELL PLACE", "number": 45, "position_lat": 53.351464, "position_lng": -6.255265, "status": null}, {"address": "Wilton Terrace (Park)", "banking": null, "bike_stands": null, "bonus": null, "contract_name": null, "name": "WILTON TERRACE (PARK)", "number": 114, "position_lat": 53.333653, "position_lng": -6.248345, "status": null}, {"address": "John Street West", "banking": null, "bike_stands": null, "bonus": null, "contract_name": null, "name": "JOHN STREET WEST", "number": 72, "position_lat": 53.343105, "position_lng": -6.277167, "status": null}, {"address": "Fenian Street", "banking": null, "bike_stands": null, "bonus": null, "contract_name": null, "name": "FENIAN STREET", "number": 63, "position_lat": 53.341428, "position_lng": -6.24672, "status": null}, {"address": "Merrion Square South", "banking": null, "bike_stands": null, "bonus": null, "contract_name": null, "name": "MERRION SQUARE SOUTH", "number": 113, "position_lat": 53.338614, "position_lng": -6.248606, "status": null}, {"address": "South Dock Road", "banking": null, "bike_stands": null, "bonus": null, "contract_name": null, "name": "SOUTH DOCK ROAD", "number": 91, "position_lat": 53.341833, "position_lng": -6.231291, "status": null}, {"address": "City Quay", "banking": null, "bike_stands": null, "bonus": null, "contract_name": null, "name": "CITY QUAY", "number": 99, "position_lat": 53.346637, "position_lng": -6.246154, "status": null}, {"address": "Exchequer Street", "banking": null, "bike_stands": null, "bonus": null, "contract_name": null, "name": "EXCHEQUER STREET", "number": 9, "position_lat": 53.343034, "position_lng": -6.263578, "status": null}, {"address": "The Point", "banking": null, "bike_stands": null, "bonus": null, "contract_name": null, "name": "THE POINT", "number": 67, "position_lat": 53.346867, "position_lng": -6.230852, "status": null}, {"address": "Broadstone", "banking": null, "bike_stands": null, "bonus": null, "contract_name": null, "name": "BROADSTONE", "number": 116, "position_lat": 53.3547, "position_lng": -6.272314, "status": null}, {"address": "Hatch Street", "banking": null, "bike_stands": null, "bonus": null, "contract_name": null, "name": "HATCH STREET", "number": 55, "position_lat": 53.33403, "position_lng": -6.260714, "status": null}, {"address": "Lime Street", "banking": null, "bike_stands": null, "bonus": null, "contract_name": null, "name": "LIME STREET", "number": 62, "position_lat": 53.346026, "position_lng": -6.243576, "status": null}, {"address": "Charlemont Street", "banking": null, "bike_stands": null, "bonus": null, "contract_name": null, "name": "CHARLEMONT PLACE", "number": 5, "position_lat": 53.330662, "position_lng": -6.260177, "status": null}, {"address": "Kilmainham Gaol", "banking": null, "bike_stands": null, "bonus": null, "contract_name": null, "name": "KILMAINHAM GAOL", "number": 97, "position_lat": 53.342113, "position_lng": -6.310015, "status": null}, {"address": "Hardwicke Place", "banking": null, "bike_stands": null, "bonus": null, "contract_name": null, "name": "HARDWICKE PLACE", "number": 61, "position_lat": 53.357043, "position_lng": -6.263232, "status": null}, {"address": "Wolfe Tone Street", "banking": null, "bike_stands": null, "bonus": null, "contract_name": null, "name": "WOLFE TONE STREET", "number": 77, "position_lat": 53.348875, "position_lng": -6.267459, "status": null}, {"address": "Francis Street", "banking": null, "bike_stands": null, "bonus": null, "contract_name": null, "name": "FRANCIS STREET", "number": 73, "position_lat": 53.342081, "position_lng": -6.275233, "status": null}, {"address": "Greek Street", "banking": null, "bike_stands": null, "bonus": null, "contract_name": null, "name": "GREEK STREET", "number": 4, "position_lat": 53.346874, "position_lng": -6.272976, "status": null}, {"address": "Guild Street", "banking": null, "bike_stands": null, "bonus": null, "contract_name": null, "name": "GUILD STREET", "number": 49, "position_lat": 53.347932, "position_lng": -6.240928, "status": null}, {"address": "Herbert Place", "banking": null, "bike_stands": null, "bonus": null, "contract_name": null, "name": "HERBERT PLACE", "number": 19, "position_lat": 53.334432, "position_lng": -6.245575, "status": null}, {"address": "High Street", "banking": null, "bike_stands": null, "bonus": null, "contract_name": null, "name": "HIGH STREET", "number": 7, "position_lat": 53.343565, "position_lng": -6.275071, "status": null}, {"address": "North Circular Road", "banking": null, "bike_stands": null, "bonus": null, "contract_name": null, "name": "NORTH CIRCULAR ROAD", "number": 60, "position_lat": 53.359624, "position_lng": -6.260348, "status": null}, {"address": "Western Way", "banking": null, "bike_stands": null, "bonus": null, "contract_name": null, "name": "WESTERN WAY", "number": 102, "position_lat": 53.354929, "position_lng": -6.269425, "status": null}, {"address": "Talbot Street", "banking": null, "bike_stands": null, "bonus": null, "contract_name": null, "name": "TALBOT STREET", "number": 38, "position_lat": 53.350974, "position_lng": -6.25294, "status": null}, {"address": "Newman House", "banking": null, "bike_stands": null, "bonus": null, "contract_name": null, "name": "NEWMAN HOUSE", "number": 53, "position_lat": 53.337132, "position_lng": -6.26059, "status": null}, {"address": "Sir Patrick's Dun", "banking": null, "bike_stands": null, "bonus": null, "contract_name": null, "name": "SIR PATRICK DUN'S", "number": 58, "position_lat": 53.339218, "position_lng": -6.240642, "status": null}, {"address": "New Central Bank", "banking": null, "bike_stands": null, "bonus": null, "contract_name": null, "name": "NEW CENTRAL BANK", "number": 66, "position_lat": 53.347122, "position_lng": -6.234749, "status": null}, {"address": "Grangegorman Lower (Central)", "banking": null, "bike_stands": null, "bonus": null, "contract_name": null, "name": "GRANGEGORMAN LOWER (CENTRAL)", "number": 104, "position_lat": 53.355173, "position_lng": -6.278424, "status": null}, {"address": "King Street North", "banking": null, "bike_stands": null, "bonus": null, "contract_name": null, "name": "KING STREET NORTH", "number": 101, "position_lat": 53.350291, "position_lng": -6.273507, "status": null}, {"address": "Killarney Street", "banking": null, "bike_stands": null, "bonus": null, "contract_name": null, "name": "KILLARNEY STREET", "number": 115, "position_lat": 53.354845, "position_lng": -6.247579, "status": null}, {"address": "Herbert Street", "banking": null, "bike_stands": null, "bonus": null, "contract_name": null, "name": "HERBERT STREET", "number": 47, "position_lat": 53.335742, "position_lng": -6.24551, "status": null}, {"address": "Hanover Quay East", "banking": null, "bike_stands": null, "bonus": null, "contract_name": null, "name": "HANOVER QUAY EAST", "number": 117, "position_lat": 53.343653, "position_lng": -6.231755, "status": null}, {"address": "Custom House Quay", "banking": null, "bike_stands": null, "bonus": null, "contract_name": null, "name": "CUSTOM HOUSE QUAY", "number": 8, "position_lat": 53.347884, "position_lng": -6.248048, "status": null}, {"address": "Molesworth Street", "banking": null, "bike_stands": null, "bonus": null, "contract_name": null, "name": "MOLESWORTH STREET", "number": 27, "position_lat": 53.341288, "position_lng": -6.258117, "status": null}, {"address": "Georges Quay", "banking": null, "bike_stands": null, "bonus": null, "contract_name": null, "name": "GEORGES QUAY", "number": 16, "position_lat": 53.347508, "position_lng": -6.252192, "status": null}, {"address": "Kilmainham Lane", "banking": null, "bike_stands": null, "bonus": null, "contract_name": null, "name": "KILMAINHAM LANE", "number": 96, "position_lat": 53.341805, "position_lng": -6.305085, "status": null}, {"address": "Mount Brown", "banking": null, "bike_stands": null, "bonus": null, "contract_name": null, "name": "MOUNT BROWN", "number": 82, "position_lat": 53.341645, "position_lng": -6.29719, "status": null}, {"address": "Market Street South", "banking": null, "bike_stands": null, "bonus": null, "contract_name": null, "name": "MARKET STREET SOUTH", "number": 76, "position_lat": 53.342296, "position_lng": -6.287661, "status": null}, {"address": "Kevin Street", "banking": null, "bike_stands": null, "bonus": null, "contract_name": null, "name": "KEVIN STREET", "number": 71, "position_lat": 53.337757, "position_lng": -6.267699, "status": null}, {"address": "Eccles Street East", "banking": null, "bike_stands": null, "bonus": null, "contract_name": null, "name": "ECCLES STREET EAST", "number": 79, "position_lat": 53.358115, "position_lng": -6.265601, "status": null}, {"address": "Grand Canal Dock", "banking": null, "bike_stands": null, "bonus": null, "contract_name": null, "name": "GRAND CANAL DOCK", "number": 69, "position_lat": 53.342638, "position_lng": -6.238695, "status": null}, {"address": "Merrion Square East", "banking": null, "bike_stands": null, "bonus": null, "contract_name": null, "name": "MERRION SQUARE EAST", "number": 25, "position_lat": 53.339434, "position_lng": -6.246548, "status": null}, {"address": "York Street West", "banking": null, "bike_stands": null, "bonus": null, "contract_name": null, "name": "YORK STREET WEST", "number": 51, "position_lat": 53.339334, "position_lng": -6.264699, "status": null}, {"address": "St. Stephen's Green South", "banking": null, "bike_stands": null, "bonus": null, "contract_name": null, "name": "ST. STEPHEN'S GREEN SOUTH", "number": 37, "position_lat": 53.337494, "position_lng": -6.26199, "status": null}, {"address": "Denmark Street Great", "banking": null, "bike_stands": null, "bonus": null, "contract_name": null, "name": "DENMARK STREET GREAT", "number": 59, "position_lat": 53.35561, "position_lng": -6.261397, "status": null}, {"address": "Royal Hospital", "banking": null, "bike_stands": null, "bonus": null, "contract_name": null, "name": "ROYAL HOSPITAL", "number": 95, "position_lat": 53.343897, "position_lng": -6.29706, "status": null}, {"address": "Heuston Station (Car Park)", "banking": null, "bike_stands": null, "bonus": null, "contract_name": null, "name": "HEUSTON STATION (CAR PARK)", "number": 94, "position_lat": 53.346985, "position_lng": -6.297804, "status": null}, {"address": "Grangegorman Lower (North)", "banking": null, "bike_stands": null, "bonus": null, "contract_name": null, "name": "GRANGEGORMAN LOWER (NORTH)", "number": 105, "position_lat": 53.355954, "position_lng": -6.278378, "status": null}, {"address": "St. Stephen's Green East", "banking": null, "bike_stands": null, "bonus": null, "contract_name": null, "name": "ST. STEPHEN'S GREEN EAST", "number": 36, "position_lat": 53.337824, "position_lng": -6.256035, "status": null}, {"address": "Heuston Station (Central)", "banking": null, "bike_stands": null, "bonus": null, "contract_name": null, "name": "HEUSTON STATION (CENTRAL)", "number": 93, "position_lat": 53.346603, "position_lng": -6.296924, "status": null}, {"address": "Townsend Street", "banking": null, "bike_stands": null, "bonus": null, "contract_name": null, "name": "TOWNSEND STREET", "number": 22, "position_lat": 53.345922, "position_lng": -6.254614, "status": null}, {"address": "George's Lane", "banking": null, "bike_stands": null, "bonus": null, "contract_name": null, "name": "GEORGES LANE", "number": 50, "position_lat": 53.35023, "position_lng": -6.279696, "status": null}, {"address": "Phibsborough Road", "banking": null, "bike_stands": null, "bonus": null, "contract_name": null, "name": "PHIBSBOROUGH ROAD", "number": 110, "position_lat": 53.356307, "position_lng": -6.273717, "status": null}, {"address": "Eccles Street", "banking": null, "bike_stands": null, "bonus": null, "contract_name": null, "name": "ECCLES STREET", "number": 12, "position_lat": 53.359246, "position_lng": -6.269779, "status": null}, {"address": "Portobello Harbour", "banking": null, "bike_stands": null, "bonus": null, "contract_name": null, "name": "PORTOBELLO HARBOUR", "number": 34, "position_lat": 53.330362, "position_lng": -6.265163, "status": null}, {"address": "Mater Hospital", "banking": null, "bike_stands": null, "bonus": null, "contract_name": null, "name": "MATER HOSPITAL", "number": 78, "position_lat": 53.359967, "position_lng": -6.264828, "status": null}, {"address": "Blessington Street", "banking": null, "bike_stands": null, "bonus": null, "contract_name": null, "name": "BLESSINGTON STREET", "number": 2, "position_lat": 53.356769, "position_lng": -6.26814, "status": null}, {"address": "James Street", "banking": null, "bike_stands": null, "bonus": null, "contract_name": null, "name": "JAMES STREET", "number": 75, "position_lat": 53.343456, "position_lng": -6.287409, "status": null}, {"address": "Mountjoy Square East", "banking": null, "bike_stands": null, "bonus": null, "contract_name": null, "name": "MOUNTJOY SQUARE EAST", "number": 111, "position_lat": 53.356717, "position_lng": -6.256359, "status": null}, {"address": "Merrion Square West", "banking": null, "bike_stands": null, "bonus": null, "contract_name": null, "name": "MERRION SQUARE WEST", "number": 26, "position_lat": 53.339764, "position_lng": -6.251988, "status": null}, {"address": "Convention Centre", "banking": null, "bike_stands": null, "bonus": null, "contract_name": null, "name": "CONVENTION CENTRE", "number": 65, "position_lat": 53.34744, "position_lng": -6.238523, "status": null}, {"address": "Hardwicke Street", "banking": null, "bike_stands": null, "bonus": null, "contract_name": null, "name": "HARDWICKE STREET", "number": 15, "position_lat": 53.355473, "position_lng": -6.264423, "status": null}, {"address": "Parkgate Street", "banking": null, "bike_stands": null, "bonus": null, "contract_name": null, "name": "PARKGATE STREET", "number": 86, "position_lat": 53.347972, "position_lng": -6.291804, "status": null}, {"address": "Smithfield", "banking": null, "bike_stands": null, "bonus": null, "contract_name": null, "name": "SMITHFIELD", "number": 35, "position_lat": 53.347692, "position_lng": -6.278214, "status": null}, {"address": "Dame Street", "banking": null, "bike_stands": null, "bonus": null, "contract_name": null, "name": "DAME STREET", "number": 10, "position_lat": 53.344007, "position_lng": -6.266802, "status": null}, {"address": "Heuston Bridge (South)", "banking": null, "bike_stands": null, "bonus": null, "contract_name": null, "name": "HEUSTON BRIDGE (SOUTH)", "number": 100, "position_lat": 53.347106, "position_lng": -6.292041, "status": null}, {"address": "Cathal Brugha Street", "banking": null, "bike_stands": null, "bonus": null, "contract_name": null, "name": "CATHAL BRUGHA STREET", "number": 24, "position_lat": 53.352149, "position_lng": -6.260533, "status": null}, {"address": "Sandwith Street", "banking": null, "bike_stands": null, "bonus": null, "contract_name": null, "name": "SANDWITH STREET", "number": 64, "position_lat": 53.345203, "position_lng": -6.247163, "status": null}, {"address": "Buckingham Street Lower", "banking": null, "bike_stands": null, "bonus": null, "contract_name": null, "name": "BUCKINGHAM STREET LOWER", "number": 109, "position_lat": 53.353331, "position_lng": -6.249319, "status": null}, {"address": "Rothe Abbey", "banking": null, "bike_stands": null, "bonus": null, "contract_name": null, "name": "ROTHE ABBEY", "number": 85, "position_lat": 53.338776, "position_lng": -6.30395, "status": null}, {"address": "Charleville Road", "banking": null, "bike_stands": null, "bonus": null, "contract_name": null, "name": "CHARLEVILLE ROAD", "number": 107, "position_lat": 53.359157, "position_lng": -6.281866, "status": null}, {"address": "Princes Street / O'Connell Street", "banking": null, "bike_stands": null, "bonus": null, "contract_name": null, "name": "PRINCES STREET / O'CONNELL STREET", "number": 33, "position_lat": 53.349013, "position_lng": -6.260311, "status": null}, {"address": "Upper Sherrard Street", "banking": null, "bike_stands": null, "bonus": null, "contract_name": null, "name": "UPPER SHERRARD STREET", "number": 44, "position_lat": 53.358437, "position_lng": -6.260641, "status": null}, {"address": "Fitzwilliam Square East", "banking": null, "bike_stands": null, "bonus": null, "contract_name": null, "name": "FITZWILLIAM SQUARE EAST", "number": 89, "position_lat": 53.335211, "position_lng": -6.2509, "status": null}, {"address": "Grattan Street", "banking": null, "bike_stands": null, "bonus": null, "contract_name": null, "name": "GRATTAN STREET", "number": 57, "position_lat": 53.339629, "position_lng": -6.243778, "status": null}, {"address": "St James Hospital (Luas)", "banking": null, "bike_stands": null, "bonus": null, "contract_name": null, "name": "ST JAMES HOSPITAL (LUAS)", "number": 80, "position_lat": 53.341359, "position_lng": -6.292951, "status": null}, {"address": "Harcourt Terrace", "banking": null, "bike_stands": null, "bonus": null, "contract_name": null, "name": "HARCOURT TERRACE", "number": 41, "position_lat": 53.332763, "position_lng": -6.257942, "status": null}, {"address": "Bolton Street", "banking": null, "bike_stands": null, "bonus": null, "contract_name": null, "name": "BOLTON STREET", "number": 3, "position_lat": 53.351182, "position_lng": -6.269859, "status": null}, {"address": "Jervis Street", "banking": null, "bike_stands": null, "bonus": null, "contract_name": null, "name": "JERVIS STREET", "number": 40, "position_lat": 53.3483, "position_lng": -6.266651, "status": null}, {"address": "Ormond Quay Upper", "banking": null, "bike_stands": null, "bonus": null, "contract_name": null, "name": "ORMOND QUAY UPPER", "number": 29, "position_lat": 53.346057, "position_lng": -6.268001, "status": null}, {"address": "Grangegorman Lower (South)", "banking": null, "bike_stands": null, "bonus": null, "contract_name": null, "name": "GRANGEGORMAN LOWER (SOUTH)", "number": 103, "position_lat": 53.354663, "position_lng": -6.278681, "status": null}, {"address": "Mountjoy Square West", "banking": null, "bike_stands": null, "bonus": null, "contract_name": null, "name": "MOUNTJOY SQUARE WEST", "number": 28, "position_lat": 53.356299, "position_lng": -6.258586, "status": null}, {"address": "Wilton Terrace", "banking": null, "bike_stands": null, "bonus": null, "contract_name": null, "name": "WILTON TERRACE", "number": 39, "position_lat": 53.332383, "position_lng": -6.252717, "status": null}, {"address": "Emmet Road", "banking": null, "bike_stands": null, "bonus": null, "contract_name": null, "name": "EMMET ROAD", "number": 83, "position_lat": 53.340714, "position_lng": -6.308191, "status": null}, {"address": "Heuston Bridge (North)", "banking": null, "bike_stands": null, "bonus": null, "contract_name": null, "name": "HEUSTON BRIDGE (NORTH)", "number": 92, "position_lat": 53.347802, "position_lng": -6.292432, "status": null}, {"address": "Leinster Street South", "banking": null, "bike_stands": null, "bonus": null, "contract_name": null, "name": "LEINSTER STREET SOUTH", "number": 21, "position_lat": 53.34218, "position_lng": -6.254485, "status": null}, {"address": "Blackhall Place", "banking": null, "bike_stands": null, "bonus": null, "contract_name": null, "name": "BLACKHALL PLACE", "number": 88, "position_lat": 53.3488, "position_lng": -6.281637, "status": null}] 
}